{
  "Stations": [
    {
      "Code": "J03",
      "Name": "Franconia-Springfield",
      "LineCode1": "BL",
      "Lat": 38.766129,
      "Lon": -77.168797,
      "Address": {
        "Street": "6880 Frontier Dr",
        "City": "Springfield",
        "State": "VA",
        "Zip": "22150"
      }
    },
    {
      "Code": "J02",
      "Name": "Van Dorn Street",
      "LineCode1": "BL",
      "Lat": 38.799193,
      "Lon": -77.129407,
      "Address": {
        "Street": "5690 Eisenhower Ave",
        "City": "Alexandria",
        "State": "VA",
        "Zip": "22310"
      }
    },
    {
      "Code": "C13",
      "Name": "King St-Old Town",
      "LineCode1": "BL",
      "LineCode2": "YL",
      "Lat": 38.806474,
      "Lon": -77.061115,
      "Address": {
        "Street": "1900 King Street",
        "City": "Alexandria",
        "State": "VA",
        "Zip": "22301"
      }
    },
    {
      "Code": "C12",
      "Name": "Braddock Road",
      "LineCode1": "BL",
      "LineCode2": "YL",
      "Lat": 38.814009,
      "Lon": -77.053763,
      "Address": {
        "Street": "700 N West St",
        "City": "Alexandria",
        "State": "VA",
        "Zip": "22314"
      }
    },
    {
      "Code": "C11",
      "Name": "Potomac Yard",
      "LineCode1": "BL",
      "LineCode2": "YL",
      "Lat": 38.83321,
      "Lon": -77.04642,
      "Address": {
        "Street": "2900 Potomac Greens Drive",
        "City": "Alexandria",
        "State": "VA",
        "Zip": "22314"
      }
    },
    {
      "Code": "C10",
      "Name": "National Airport",
      "LineCode1": "BL",
      "LineCode2": "YL",
      "Lat": 38.852985,
      "Lon": -77.043805,
      "Address": {
        "Street": "2400 S. Smith Blvd.",
        "City": "Arlington",
        "State": "VA",
        "Zip": "22202"
      }
    },
    {
      "Code": "C09",
      "Name": "Crystal City",
      "LineCode1": "BL",
      "LineCode2": "YL",
      "Lat": 38.85779,
      "Lon": -77.050589,
      "Address": {
        "Street": "1750 S. Bell St.",
        "City": "Arlington",
        "State": "VA",
        "Zip": "22202"
      }
    },
    {
      "Code": "C08",
      "Name": "Pentagon City",
      "LineCode1": "BL",
      "LineCode2": "YL",
      "Lat": 38.863045,
      "Lon": -77.059507,
      "Address": {
        "Street": "1250 South Hayes St.",
        "City": "Arlington",
        "State": "VA",
        "Zip": "22202"
      }
    },
    {
      "Code": "C07",
      "Name": "Pentagon",
      "LineCode1": "BL",
      "LineCode2": "YL",
      "Lat": 38.869349,
      "Lon": -77.054013,
      "Address": {
        "Street": "2 South Rotary Road",
        "City": "Arlington",
        "State": "VA",
        "Zip": "22202"
      }
    },
    {
      "Code": "C06",
      "Name": "Arlington Cemetery",
      "LineCode1": "BL",
      "Lat": 38.884574,
      "Lon": -77.063108,
      "Address": {
        "Street": "1000 North Memorial Drive",
        "City": "Arlington",
        "State": "VA",
        "Zip": "22211"
      }
    },
    {
      "Code": "C05",
      "Name": "Rosslyn",
      "LineCode1": "BL",
      "LineCode2": "OR",
      "LineCode3": "SV",
      "Lat": 38.896595,
      "Lon": -77.07146,
      "Address": {
        "Street": "1850 N. Moore Street",
        "City": "Arlington",
        "State": "VA",
        "Zip": "22209"
      }
    },
    {
      "Code": "C04",
      "Name": "Foggy Bottom-GWU",
      "LineCode1": "BL",
      "LineCode2": "OR",
      "LineCode3": "SV",
      "Lat": 38.900599,
      "Lon": -77.050273,
      "Address": {
        "Street": "2301 I St. NW",
        "City": "Washington",
        "State": "DC",
        "Zip": "20037"
      }
    },
    {
      "Code": "C03",
      "Name": "Farragut West",
      "LineCode1": "BL",
      "LineCode2": "OR",
      "LineCode3": "SV",
      "Lat": 38.901311,
      "Lon": -77.03981,
      "Address": {
        "Street": "900 18th St. NW",
        "City": "Washington",
        "State": "DC",
        "Zip": "20006"
      }
    },
    {
      "Code": "C02",
      "Name": "McPherson Square",
      "LineCode1": "BL",
      "LineCode2": "OR",
      "LineCode3": "SV",
      "Lat": 38.901316,
      "Lon": -77.033652,
      "Address": {
        "Street": "1400 I St. NW",
        "City": "Washington",
        "State": "DC",
        "Zip": "20005"
      }
    },
    {
      "Code": "C01",
      "Name": "Metro Center",
      "StationTogether1": "A01",
      "LineCode1": "BL",
      "LineCode2": "OR",
      "LineCode3": "SV",
      "Lat": 38.898303,
      "Lon": -77.028099,
      "Address": {
        "Street": "607 13th St. NW",
        "City": "Washington",
        "State": "DC",
        "Zip": "20005"
      },
      "Selected": true
    },
    {
      "Code": "D01",
      "Name": "Federal Triangle",
      "LineCode1": "BL",
      "LineCode2": "OR",
      "LineCode3": "SV",
      "Lat": 38.893757,
      "Lon": -77.028218,
      "Address": {
        "Street": "302 12th St. NW",
        "City": "Washington",
        "State": "DC",
        "Zip": "20004"
      }
    },
    {
      "Code": "D02",
      "Name": "Smithsonian",
      "LineCode1": "BL",
      "LineCode2": "OR",
      "LineCode3": "SV",
      "Lat": 38.888022,
      "Lon": -77.028232,
      "Address": {
        "Street": "1200 Independence Avenue SW",
        "City": "Washington",
        "State": "DC",
        "Zip": "20004"
      }
    },
    {
      "Code": "D03",
      "Name": "L'Enfant Plaza",
      "StationTogether1": "F03",
      "LineCode1": "BL",
      "LineCode2": "OR",
      "LineCode3": "SV",
      "Lat": 38.884775,
      "Lon": -77.021964,
      "Address": {
        "Street": "600 Maryland Avenue SW",
        "City": "Washington",
        "State": "DC",
        "Zip": "20024"
      }
    },
    {
      "Code": "D04",
      "Name": "Federal Center SW",
      "LineCode1": "BL",
      "LineCode2": "OR",
      "LineCode3": "SV",
      "Lat": 38.884958,
      "Lon": -77.01586,
      "Address": {
        "Street": "401 3rd Street SW",
        "City": "Washington",
        "State": "DC",
        "Zip": "20024"
      }
    },
    {
      "Code": "D05",
      "Name": "Capitol South",
      "LineCode1": "BL",
      "LineCode2": "OR",
      "LineCode3": "SV",
      "Lat": 38.884968,
      "Lon": -77.005137,
      "Address": {
        "Street": "355 First Street SE",
        "City": "Washington",
        "State": "DC",
        "Zip": "20003"
      }
    },
    {
      "Code": "D06",
      "Name": "Eastern Market",
      "LineCode1": "BL",
      "LineCode2": "OR",
      "LineCode3": "SV",
      "Lat": 38.884124,
      "Lon": -76.995334,
      "Address": {
        "Street": "701 Pennsylvania Avenue SE",
        "City": "Washington",
        "State": "DC",
        "Zip": "20003"
      }
    },
    {
      "Code": "D07",
      "Name": "Potomac Ave",
      "LineCode1": "BL",
      "LineCode2": "OR",
      "LineCode3": "SV",
      "Lat": 38.880841,
      "Lon": -76.985721,
      "Address": {
        "Street": "700 14th Street SE",
        "City": "Washington",
        "State": "DC",
        "Zip": "20003"
      }
    },
    {
      "Code": "D08",
      "Name": "Stadium-Armory",
      "LineCode1": "BL",
      "LineCode2": "OR",
      "LineCode3": "SV",
      "Lat": 38.88594,
      "Lon": -76.977485,
      "Address": {
        "Street": "192 19th St. SE",
        "City": "Washington",
        "State": "DC",
        "Zip": "20003"
      }
    },
    {
      "Code": "G01",
      "Name": "Benning Road",
      "LineCode1": "BL",
      "LineCode2": "SV",
      "Lat": 38.890488,
      "Lon": -76.938291,
      "Address": {
        "Street": "4500 Benning Rd NE",
        "City": "Washington",
        "State": "DC",
        "Zip": "20019"
      }
    },
    {
      "Code": "G02",
      "Name": "Capitol Heights",
      "LineCode1": "BL",
      "LineCode2": "SV",
      "Lat": 38.889757,
      "Lon": -76.913382,
      "Address": {
        "Street": "133 Central Ave",
        "City": "Capitol Heights",
        "State": "MD",
        "Zip": "20743"
      }
    },
    {
      "Code": "G03",
      "Name": "Addison Road",
      "LineCode1": "BL",
      "LineCode2": "SV",
      "Lat": 38.886713,
      "Lon": -76.893592,
      "Address": {
        "Street": "100 Addison Rd S",
        "City": "Capitol Heights",
        "State": "MD",
        "Zip": "20743"
      }
    },
    {
      "Code": "G04",
      "Name": "Morgan Boulevard",
      "LineCode1": "BL",
      "LineCode2": "SV",
      "Lat": 38.8913,
      "Lon": -76.8682,
      "Address": {
        "Street": "401 Garrett A Morgan Blvd",
        "City": "Landover",
        "State": "MD",
        "Zip": "20785"
      }
    },
    {
      "Code": "G05",
      "Name": "Downtown Largo",
      "LineCode1": "BL",
      "LineCode2": "SV",
      "Lat": 38.9008,
      "Lon": -76.8449,
      "Address": {
        "Street": "9000 Lottsford Rd",
        "City": "Largo",
        "State": "MD",
        "Zip": "20774"
      }
    }
  ]
}