{
  "Stations": [

    {
      "Code": "E10",
      "Name": "Greenbelt",
      "LineCode1": "GR",
      "Lat": 39.011036,
      "Lon": -76.911362,
      "Address": {
        "Street": "5500 Greenbelt Metro Dr",
        "City": "Beltsville",
        "State": "MD",
        "Zip": "20705"
      }
    },
    {
      "Code": "E09",
      "Name": "College Park-U of Md",
      "LineCode1": "GR",
      "Lat": 38.978523,
      "Lon": -76.928432,
      "Address": {
        "Street": "4931 Calvert Rd",
        "City": "College Park",
        "State": "MD",
        "Zip": "20740"
      }
    },
    {
      "Code": "E08",
      "Name": "Hyattsville Crossing",
      "LineCode1": "GR",
      "Lat": 38.965276,
      "Lon": -76.956182,
      "Address": {
        "Street": "3575 East-West Hwy",
        "City": "Hyattsville",
        "State": "MD",
        "Zip": "20782"
      }
    },
    {
      "Code": "E07",
      "Name": "West Hyattsville",
      "LineCode1": "GR",
      "Lat": 38.954931,
      "Lon": -76.969881,
      "Address": {
        "Street": "2700 Hamilton St",
        "City": "Hyattsville",
        "State": "MD",
        "Zip": "20782"
      }
    },
    {
      "Code": "E06",
      "Name": "Fort Totten",
      "StationTogether1": "B06",
      "LineCode1": "GR",
      "LineCode2": "YL",
      "Lat": 38.951777,
      "Lon": -77.002174,
      "Address": {
        "Street": "550 Galloway St NE",
        "City": "Washington",
        "State": "DC",
        "Zip": "20011"
      }
    },
    {
      "Code": "E05",
      "Name": "Georgia Ave-Petworth",
      "LineCode1": "GR",
      "LineCode2": "YL",
      "Lat": 38.936077,
      "Lon": -77.024728,
      "Address": {
        "Street": "3700 Georgia Avenue NW",
        "City": "Washington",
        "State": "DC",
        "Zip": "20010"
      }
    },
    {
      "Code": "E04",
      "Name": "Columbia Heights",
      "LineCode1": "GR",
      "LineCode2": "YL",
      "Lat": 38.928672,
      "Lon": -77.032775,
      "Address": {
        "Street": "3030 14th St. NW",
        "City": "Washington",
        "State": "DC",
        "Zip": "20009"
      }
    },
    {
      "Code": "E03",
      "Name": "U Street/Cardozo",
      "LineCode1": "GR",
      "LineCode2": "YL",
      "Lat": 38.916489,
      "Lon": -77.028938,
      "Address": {
        "Street": "1240 U Street NW",
        "City": "Washington",
        "State": "DC",
        "Zip": "20009"
      }
    },
    {
      "Code": "E02",
      "Name": "Shaw-Howard U",
      "LineCode1": "GR",
      "LineCode2": "YL",
      "Lat": 38.912919,
      "Lon": -77.022194,
      "Address": {
        "Street": "1701 8th St. NW",
        "City": "Washington",
        "State": "DC",
        "Zip": "20001"
      }
    },
    {
      "Code": "E01",
      "Name": "Mt Vernon Sq",
      "LineCode1": "GR",
      "LineCode2": "YL",
      "Lat": 38.905604,
      "Lon": -77.022256,
      "Address": {
        "Street": "700 M St. NW",
        "City": "Washington",
        "State": "DC",
        "Zip": "20001"
      }
    },
    {
      "Code": "F01",
      "Name": "Gallery Pl-Chinatown",
      "StationTogether1": "B01",
      "LineCode1": "GR",
      "LineCode2": "YL",
      "Lat": 38.89834,
      "Lon": -77.021851,
      "Address": {
        "Street": "630 H St. NW",
        "City": "Washington",
        "State": "DC",
        "Zip": "20001"
      },
      "Selected": true
    },
    {
      "Code": "F02",
      "Name": "Archives-Navy Memorial",
      "LineCode1": "GR",
      "LineCode2": "YL",
      "Lat": 38.893893,
      "Lon": -77.021902,
      "Address": {
        "Street": "701 Pennsylvania Avenue NW",
        "City": "Washington",
        "State": "DC",
        "Zip": "20004"
      }
    },
    {
      "Code": "F03",
      "Name": "L'Enfant Plaza",
      "StationTogether1": "D03",
      "LineCode1": "GR",
      "LineCode2": "YL",
      "Lat": 38.884775,
      "Lon": -77.021964,
      "Address": {
        "Street": "600 Maryland Avenue SW",
        "City": "Washington",
        "State": "DC",
        "Zip": "20024"
      }
    },
    {
      "Code": "F04",
      "Name": "Waterfront",
      "LineCode1": "GR",
      "Lat": 38.876221,
      "Lon": -77.017491,
      "Address": {
        "Street": "399 M Street SW",
        "City": "Washington",
        "State": "DC",
        "Zip": "20024"
      }
    },
    {
      "Code": "F05",
      "Name": "Navy Yard-Ballpark",
      "LineCode1": "GR",
      "Lat": 38.876588,
      "Lon": -77.005086,
      "Address": {
        "Street": "200 M Street SE",
        "City": "Washington",
        "State": "DC",
        "Zip": "20003"
      }
    },
    {
      "Code": "F06",
      "Name": "Anacostia",
      "LineCode1": "GR",
      "Lat": 38.862072,
      "Lon": -76.995648,
      "Address": {
        "Street": "1101 Howard Rd SE",
        "City": "Washington",
        "State": "DC",
        "Zip": "20020"
      }
    },
    {
      "Code": "F07",
      "Name": "Congress Heights",
      "LineCode1": "GR",
      "Lat": 38.845334,
      "Lon": -76.98817,
      "Address": {
        "Street": "1290 Alabama Ave SE",
        "City": "Washington",
        "State": "DC",
        "Zip": "20020"
      }
    },
    {
      "Code": "F08",
      "Name": "Southern Avenue",
      "LineCode1": "GR",
      "Lat": 38.840974,
      "Lon": -76.97536,
      "Address": {
        "Street": "1411 Southern Ave SE",
        "City": "Hillcrest Heights",
        "State": "MD",
        "Zip": "20748"
      }
    },
    {
      "Code": "F09",
      "Name": "Naylor Road",
      "LineCode1": "GR",
      "Lat": 38.851187,
      "Lon": -76.956565,
      "Address": {
        "Street": "3226 Naylor Rd",
        "City": "Hillcrest Heights",
        "State": "MD",
        "Zip": "20748"
      }
    },
    {
      "Code": "F10",
      "Name": "Suitland",
      "LineCode1": "GR",
      "Lat": 38.843891,
      "Lon": -76.932022,
      "Address": {
        "Street": "4500 Silver Hill Rd",
        "City": "Suitland",
        "State": "MD",
        "Zip": "20746"
      }
    },
    {
      "Code": "F11",
      "Name": "Branch Ave",
      "LineCode1": "GR",
      "Lat": 38.826995,
      "Lon": -76.912134,
      "Address": {
        "Street": "4707 Old Soper Rd",
        "City": "Suitland",
        "State": "MD",
        "Zip": "20746"
      }
    }
  ]
}