{
  "Stations": [
    {
      "Code": "K08",
      "Name": "Vienna/Fairfax-GMU",
      "LineCode1": "OR",
      "Lat": 38.877693,
      "Lon": -77.271562,
      "Address": {
        "Street": "9550 Saintsbury Dr",
        "City": "Fairfax",
        "State": "VA",
        "Zip": "22031"
      }
    },
    {
      "Code": "K07",
      "Name": "Dunn Loring-Merrifield",
      "LineCode1": "OR",
      "Lat": 38.883015,
      "Lon": -77.228939,
      "Address": {
        "Street": "2700 Gallows Rd",
        "City": "Vienna",
        "State": "VA",
        "Zip": "22180"
      }
    },
    {
      "Code": "K06",
      "Name": "West Falls Church",
      "LineCode1": "OR",
      "Lat": 38.90067,
      "Lon": -77.189394,
      "Address": {
        "Street": "7040 Haycock Rd",
        "City": "Falls Church",
        "State": "VA",
        "Zip": "22043"
      }
    },
    {
      "Code": "K05",
      "Name": "East Falls Church",
      "LineCode1": "OR",
      "LineCode2": "SV",
      "Lat": 38.885841,
      "Lon": -77.157177,
      "Address": {
        "Street": "2001 N Sycamore St",
        "City": "Arlington",
        "State": "VA",
        "Zip": "22205"
      }
    },
    {
      "Code": "K04",
      "Name": "Ballston-MU",
      "LineCode1": "OR",
      "LineCode2": "SV",
      "Lat": 38.882071,
      "Lon": -77.111845,
      "Address": {
        "Street": "4230 Fairfax Drive",
        "City": "Arlington",
        "State": "VA",
        "Zip": "22201"
      }
    },
    {
      "Code": "K03",
      "Name": "Virginia Square-GMU",
      "LineCode1": "OR",
      "LineCode2": "SV",
      "Lat": 38.88331,
      "Lon": -77.104267,
      "Address": {
        "Street": "3600 Fairfax Drive",
        "City": "Arlington",
        "State": "VA",
        "Zip": "22201"
      }
    },
    {
      "Code": "K02",
      "Name": "Clarendon",
      "LineCode1": "OR",
      "LineCode2": "SV",
      "Lat": 38.886373,
      "Lon": -77.096963,
      "Address": {
        "Street": "3100 Wilson Blvd",
        "City": "Arlington",
        "State": "VA",
        "Zip": "22201"
      }
    },
    {
      "Code": "K01",
      "Name": "Court House",
      "LineCode1": "OR",
      "LineCode2": "SV",
      "Lat": 38.891499,
      "Lon": -77.08391,
      "Address": {
        "Street": "2100 Wilson Blvd",
        "City": "Arlington",
        "State": "VA",
        "Zip": "22201"
      }
    },
    {
      "Code": "C05",
      "Name": "Rosslyn",
      "LineCode1": "BL",
      "LineCode2": "OR",
      "LineCode3": "SV",
      "Lat": 38.896595,
      "Lon": -77.07146,
      "Address": {
        "Street": "1850 N. Moore Street",
        "City": "Arlington",
        "State": "VA",
        "Zip": "22209"
      }
    },
    {
      "Code": "C04",
      "Name": "Foggy Bottom-GWU",
      "LineCode1": "BL",
      "LineCode2": "OR",
      "LineCode3": "SV",
      "Lat": 38.900599,
      "Lon": -77.050273,
      "Address": {
        "Street": "2301 I St. NW",
        "City": "Washington",
        "State": "DC",
        "Zip": "20037"
      }
    },
    {
      "Code": "C03",
      "Name": "Farragut West",
      "LineCode1": "BL",
      "LineCode2": "OR",
      "LineCode3": "SV",
      "Lat": 38.901311,
      "Lon": -77.03981,
      "Address": {
        "Street": "900 18th St. NW",
        "City": "Washington",
        "State": "DC",
        "Zip": "20006"
      }
    },
    {
      "Code": "C02",
      "Name": "McPherson Square",
      "LineCode1": "BL",
      "LineCode2": "OR",
      "LineCode3": "SV",
      "Lat": 38.901316,
      "Lon": -77.033652,
      "Address": {
        "Street": "1400 I St. NW",
        "City": "Washington",
        "State": "DC",
        "Zip": "20005"
      }
    },
    {
      "Code": "C01",
      "Name": "Metro Center",
      "StationTogether1": "A01",
      "LineCode1": "BL",
      "LineCode2": "OR",
      "LineCode3": "SV",
      "Lat": 38.898303,
      "Lon": -77.028099,
      "Address": {
        "Street": "607 13th St. NW",
        "City": "Washington",
        "State": "DC",
        "Zip": "20005"
      },
      "Selected": true
    },
    {
      "Code": "D01",
      "Name": "Federal Triangle",
      "LineCode1": "BL",
      "LineCode2": "OR",
      "LineCode3": "SV",
      "Lat": 38.893757,
      "Lon": -77.028218,
      "Address": {
        "Street": "302 12th St. NW",
        "City": "Washington",
        "State": "DC",
        "Zip": "20004"
      }
    },
    {
      "Code": "D02",
      "Name": "Smithsonian",
      "LineCode1": "BL",
      "LineCode2": "OR",
      "LineCode3": "SV",
      "Lat": 38.888022,
      "Lon": -77.028232,
      "Address": {
        "Street": "1200 Independence Avenue SW",
        "City": "Washington",
        "State": "DC",
        "Zip": "20004"
      }
    },
    {
      "Code": "D03",
      "Name": "L'Enfant Plaza",
      "StationTogether1": "F03",
      "LineCode1": "BL",
      "LineCode2": "OR",
      "LineCode3": "SV",
      "Lat": 38.884775,
      "Lon": -77.021964,
      "Address": {
        "Street": "600 Maryland Avenue SW",
        "City": "Washington",
        "State": "DC",
        "Zip": "20024"
      }
    },
    {
      "Code": "D04",
      "Name": "Federal Center SW",
      "LineCode1": "BL",
      "LineCode2": "OR",
      "LineCode3": "SV",
      "Lat": 38.884958,
      "Lon": -77.01586,
      "Address": {
        "Street": "401 3rd Street SW",
        "City": "Washington",
        "State": "DC",
        "Zip": "20024"
      }
    },
    {
      "Code": "D05",
      "Name": "Capitol South",
      "LineCode1": "BL",
      "LineCode2": "OR",
      "LineCode3": "SV",
      "Lat": 38.884968,
      "Lon": -77.005137,
      "Address": {
        "Street": "355 First Street SE",
        "City": "Washington",
        "State": "DC",
        "Zip": "20003"
      }
    },
    {
      "Code": "D06",
      "Name": "Eastern Market",
      "LineCode1": "BL",
      "LineCode2": "OR",
      "LineCode3": "SV",
      "Lat": 38.884124,
      "Lon": -76.995334,
      "Address": {
        "Street": "701 Pennsylvania Avenue SE",
        "City": "Washington",
        "State": "DC",
        "Zip": "20003"
      }
    },
    {
      "Code": "D07",
      "Name": "Potomac Ave",
      "LineCode1": "BL",
      "LineCode2": "OR",
      "LineCode3": "SV",
      "Lat": 38.880841,
      "Lon": -76.985721,
      "Address": {
        "Street": "700 14th Street SE",
        "City": "Washington",
        "State": "DC",
        "Zip": "20003"
      }
    },
    {
      "Code": "D08",
      "Name": "Stadium-Armory",
      "LineCode1": "BL",
      "LineCode2": "OR",
      "LineCode3": "SV",
      "Lat": 38.88594,
      "Lon": -76.977485,
      "Address": {
        "Street": "192 19th St. SE",
        "City": "Washington",
        "State": "DC",
        "Zip": "20003"
      }
    },
    {
      "Code": "D09",
      "Name": "Minnesota Ave",
      "LineCode1": "OR",
      "Lat": 38.898284,
      "Lon": -76.948042,
      "Address": {
        "Street": "4000 Minnesota Ave NE",
        "City": "Washington",
        "State": "DC",
        "Zip": "20019"
      }
    },
    {
      "Code": "D10",
      "Name": "Deanwood",
      "LineCode1": "OR",
      "Lat": 38.907734,
      "Lon": -76.936177,
      "Address": {
        "Street": "4720 Minnesota Ave NE",
        "City": "Washington",
        "State": "DC",
        "Zip": "20019"
      }
    },
    {
      "Code": "D11",
      "Name": "Cheverly",
      "LineCode1": "OR",
      "Lat": 38.91652,
      "Lon": -76.915427,
      "Address": {
        "Street": "5501 Columbia Park Rd",
        "City": "Cheverly",
        "State": "MD",
        "Zip": "20785"
      }
    },
    {
      "Code": "D12",
      "Name": "Landover",
      "LineCode1": "OR",
      "Lat": 38.934411,
      "Lon": -76.890988,
      "Address": {
        "Street": "3000 Pennsy Dr",
        "City": "Landover",
        "State": "MD",
        "Zip": "20785"
      }
    },
    {
      "Code": "D13",
      "Name": "New Carrollton",
      "LineCode1": "OR",
      "Lat": 38.947674,
      "Lon": -76.872144,
      "Address": {
        "Street": "4700 Garden City Dr",
        "City": "New Carrollton",
        "State": "MD",
        "Zip": "20784"
      }
    }
  ]
}