{
  "Stations": [
    {
      "Code": "A15",
      "Name": "Shady Grove",
      "LineCode1": "RD",
      "Lat": 39.119819,
      "Lon": -77.164921,
      "Address": {
        "Street": "215903 Somerville Dr",
        "City": "Rockville",
        "State": "MD",
        "Zip": "20855"
      }
    },
    {
      "Code": "A14",
      "Name": "Rockville",
      "LineCode1": "RD",
      "Lat": 39.084215,
      "Lon": -77.146424,
      "Address": {
        "Street": "251 Hungerford Dr",
        "City": "Rockville",
        "State": "MD",
        "Zip": "20850"
      }
    },
    {
      "Code": "A13",
      "Name": "Twinbrook",
      "LineCode1": "RD",
      "Lat": 39.062359,
      "Lon": -77.121113,
      "Address": {
        "Street": "1600 Chapman Ave",
        "City": "Rockville",
        "State": "MD",
        "Zip": "20852"
      }
    },
    {
      "Code": "A12",
      "Name": "North Bethesda",
      "LineCode1": "RD",
      "Lat": 39.048043,
      "Lon": -77.113131,
      "Address": {
        "Street": "10000 Citadel Ave",
        "City": "North Bethesda",
        "State": "MD",
        "Zip": "20852"
      }
    },
    {
      "Code": "A11",
      "Name": "Grosvenor-Strathmore",
      "LineCode1": "RD",
      "Lat": 39.029158,
      "Lon": -77.10415,
      "Address": {
        "Street": "5301 Tuckerman Ln",
        "City": "North Bethesda",
        "State": "MD",
        "Zip": "20852"
      }
    },
    {
      "Code": "A10",
      "Name": "Medical Center",
      "LineCode1": "RD",
      "Lat": 38.999947,
      "Lon": -77.097253,
      "Address": {
        "Street": "8810 Rockville Pike",
        "City": "Bethesda",
        "State": "MD",
        "Zip": "20814"
      }
    },
    {
      "Code": "A09",
      "Name": "Bethesda",
      "LineCode1": "RD",
      "Lat": 38.984282,
      "Lon": -77.094431,
      "Address": {
        "Street": "800 North Ln",
        "City": "Bethesda",
        "State": "MD",
        "Zip": "20814"
      }
    },
    {
      "Code": "A08",
      "Name": "Friendship Heights",
      "LineCode1": "RD",
      "Lat": 38.960744,
      "Lon": -77.085969,
      "Address": {
        "Street": "5337 Wisconsin Avenue NW",
        "City": "Washington",
        "State": "DC",
        "Zip": "20015"
      }
    },
    {
      "Code": "A07",
      "Name": "Tenleytown-AU",
      "LineCode1": "RD",
      "Lat": 38.947808,
      "Lon": -77.079615,
      "Address": {
        "Street": "4501 Wisconsin Ave NW",
        "City": "Washington",
        "State": "DC",
        "Zip": "20016"
      }
    },
    {
      "Code": "A06",
      "Name": "Van Ness-UDC",
      "LineCode1": "RD",
      "Lat": 38.94362,
      "Lon": -77.063511,
      "Address": {
        "Street": "4200 Connecticut Ave NW",
        "City": "Washington",
        "State": "DC",
        "Zip": "20008"
      }
    },
    {
      "Code": "A05",
      "Name": "Cleveland Park",
      "LineCode1": "RD",
      "Lat": 38.934703,
      "Lon": -77.058226,
      "Address": {
        "Street": "3599 Connecticut Avenue NW",
        "City": "Washington",
        "State": "DC",
        "Zip": "20008"
      }
    },
    {
      "Code": "A04",
      "Name": "Woodley Park-Zoo",
      "LineCode1": "RD",
      "Lat": 38.924999,
      "Lon": -77.052648,
      "Address": {
        "Street": "2700 Connecticut Ave., NW",
        "City": "Washington",
        "State": "DC",
        "Zip": "20008"
      }
    },
    {
      "Code": "A03",
      "Name": "Dupont Circle",
      "LineCode1": "RD",
      "Lat": 38.909499,
      "Lon": -77.04362,
      "Address": {
        "Street": "1525 20th St. NW",
        "City": "Washington",
        "State": "DC",
        "Zip": "20036"
      }
    },
    {
      "Code": "A02",
      "Name": "Farragut North",
      "LineCode1": "RD",
      "Lat": 38.903192,
      "Lon": -77.039766,
      "Address": {
        "Street": "1001 Connecticut Avenue NW",
        "City": "Washington",
        "State": "DC",
        "Zip": "20036"
      }
    },
    {
      "Code": "A01",
      "Name": "Metro Center",
      "StationTogether1": "C01",
      "LineCode1": "RD",
      "Lat": 38.898303,
      "Lon": -77.028099,
      "Address": {
        "Street": "607 13th St. NW",
        "City": "Washington",
        "State": "DC",
        "Zip": "20005"
      },
      "Selected": true
    },
    {
      "Code": "B01",
      "Name": "Gallery Pl-Chinatown",
      "StationTogether1": "F01",
      "LineCode1": "RD",
      "Lat": 38.89834,
      "Lon": -77.021851,
      "Address": {
        "Street": "630 H St. NW",
        "City": "Washington",
        "State": "DC",
        "Zip": "20001"
      }
    },
    {
      "Code": "B02",
      "Name": "Judiciary Square",
      "LineCode1": "RD",
      "Lat": 38.896084,
      "Lon": -77.016643,
      "Address": {
        "Street": "450 F Street NW",
        "City": "Washington",
        "State": "DC",
        "Zip": "20001"
      }
    },
    {
      "Code": "B03",
      "Name": "Union Station",
      "LineCode1": "RD",
      "Lat": 38.897723,
      "Lon": -77.006745,
      "Address": {
        "Street": "701 First St. NE",
        "City": "Washington",
        "State": "DC",
        "Zip": "20002"
      }
    },
    {
      "Code": "B35",
      "Name": "NoMa-Gallaudet U",
      "LineCode1": "RD",
      "Lat": 38.907407,
      "Lon": -77.002961,
      "Address": {
        "Street": "200 Florida Ave N.E.",
        "City": "Washington",
        "State": "DC",
        "Zip": "20002"
      }
    },
    {
      "Code": "B04",
      "Name": "Rhode Island Ave",
      "LineCode1": "RD",
      "Lat": 38.920741,
      "Lon": -76.995984,
      "Address": {
        "Street": "2300 Washington Pl NE",
        "City": "Washington",
        "State": "DC",
        "Zip": "20018"
      }
    },
    {
      "Code": "B05",
      "Name": "Brookland-CUA",
      "LineCode1": "RD",
      "Lat": 38.933234,
      "Lon": -76.994544,
      "Address": {
        "Street": "801 Michigan Ave NE",
        "City": "Washington",
        "State": "DC",
        "Zip": "20017"
      }
    },
    {
      "Code": "B06",
      "Name": "Fort Totten",
      "StationTogether1": "E06",
      "LineCode1": "RD",
      "Lat": 38.951777,
      "Lon": -77.002174,
      "Address": {
        "Street": "550 Galloway St NE",
        "City": "Washington",
        "State": "DC",
        "Zip": "20011"
      }
    },
    {
      "Code": "B07",
      "Name": "Takoma",
      "LineCode1": "RD",
      "Lat": 38.975532,
      "Lon": -77.017834,
      "Address": {
        "Street": "327 Cedar St NW",
        "City": "Washington",
        "State": "DC",
        "Zip": "20012"
      }
    },
    {
      "Code": "B08",
      "Name": "Silver Spring",
      "LineCode1": "RD",
      "Lat": 38.993841,
      "Lon": -77.031321,
      "Address": {
        "Street": "8400 Colesville Rd",
        "City": "Silver Spring",
        "State": "MD",
        "Zip": "20910"
      }
    },
    {
      "Code": "B09",
      "Name": "Forest Glen",
      "LineCode1": "RD",
      "Lat": 39.015413,
      "Lon": -77.042953,
      "Address": {
        "Street": "9730 Georgia Ave",
        "City": "Silver Spring",
        "State": "MD",
        "Zip": "20910"
      }
    },
    {
      "Code": "B10",
      "Name": "Wheaton",
      "LineCode1": "RD",
      "Lat": 39.038558,
      "Lon": -77.051098,
      "Address": {
        "Street": "11171 Georgia Ave",
        "City": "Wheaton",
        "State": "MD",
        "Zip": "20902"
      }
    },
    {
      "Code": "B11",
      "Name": "Glenmont",
      "LineCode1": "RD",
      "Lat": 39.061713,
      "Lon": -77.05341,
      "Address": {
        "Street": "12601 Georgia Ave",
        "City": "Silver Spring",
        "State": "MD",
        "Zip": "20906"
      }
    }
  ]
}