{
  "Stations": [
    {
      "Code": "E01",
      "Name": "Mt Vernon Square",
      "LineCode1": "GR",
      "LineCode2": "YL",
      "Lat": 38.905604,
      "Lon": -77.022256,
      "Address": {
        "Street": "700 M St. NW",
        "City": "Washington",
        "State": "DC",
        "Zip": "20001"
      }
    },
    {
      "Code": "F01",
      "Name": "Gallery Pl-Chinatown",
      "StationTogether1": "B01",
      "LineCode1": "GR",
      "LineCode2": "YL",
      "Lat": 38.89834,
      "Lon": -77.021851,
      "Address": {
        "Street": "630 H St. NW",
        "City": "Washington",
        "State": "DC",
        "Zip": "20001"
      }
    },
    {
      "Code": "F02",
      "Name": "Archives-Navy Memorial",
      "LineCode1": "GR",
      "LineCode2": "YL",
      "Lat": 38.893893,
      "Lon": -77.021902,
      "Address": {
        "Street": "701 Pennsylvania Avenue NW",
        "City": "Washington",
        "State": "DC",
        "Zip": "20004"
      }
    },
    {
      "Code": "F03",
      "Name": "L'Enfant Plaza",
      "StationTogether1": "D03",
      "LineCode1": "GR",
      "LineCode2": "YL",
      "Lat": 38.884775,
      "Lon": -77.021964,
      "Address": {
        "Street": "600 Maryland Avenue SW",
        "City": "Washington",
        "State": "DC",
        "Zip": "20024"
      }
    },
    {
      "Code": "C07",
      "Name": "Pentagon",
      "LineCode1": "BL",
      "LineCode2": "YL",
      "Lat": 38.869349,
      "Lon": -77.054013,
      "Address": {
        "Street": "2 South Rotary Road",
        "City": "Arlington",
        "State": "VA",
        "Zip": "22202"
      },
      "Selected": true
    },
    {
      "Code": "C08",
      "Name": "Pentagon City",
      "LineCode1": "BL",
      "LineCode2": "YL",
      "Lat": 38.863045,
      "Lon": -77.059507,
      "Address": {
        "Street": "1250 South Hayes St.",
        "City": "Arlington",
        "State": "VA",
        "Zip": "22202"
      }
    },
    {
      "Code": "C09",
      "Name": "Crystal City",
      "LineCode1": "BL",
      "LineCode2": "YL",
      "Lat": 38.85779,
      "Lon": -77.050589,
      "Address": {
        "Street": "1750 S. Bell St.",
        "City": "Arlington",
        "State": "VA",
        "Zip": "22202"
      }
    },
    {
      "Code": "C10",
      "Name": "National Airport",
      "LineCode1": "BL",
      "LineCode2": "YL",
      "Lat": 38.852985,
      "Lon": -77.043805,
      "Address": {
        "Street": "2400 S. Smith Blvd.",
        "City": "Arlington",
        "State": "VA",
        "Zip": "22202"
      }
    },
    {
      "Code": "C11",
      "Name": "Potomac Yard",
      "LineCode1": "BL",
      "LineCode2": "YL",
      "Lat": 38.83321,
      "Lon": -77.04642,
      "Address": {
        "Street": "2900 Potomac Greens Drive",
        "City": "Alexandria",
        "State": "VA",
        "Zip": "22314"
      }
    },
    {
      "Code": "C12",
      "Name": "Braddock Road",
      "LineCode1": "BL",
      "LineCode2": "YL",
      "Lat": 38.814009,
      "Lon": -77.053763,
      "Address": {
        "Street": "700 N West St",
        "City": "Alexandria",
        "State": "VA",
        "Zip": "22314"
      }
    },
    {
      "Code": "C13",
      "Name": "King St-Old Town",
      "LineCode1": "BL",
      "LineCode2": "YL",
      "Lat": 38.806474,
      "Lon": -77.061115,
      "Address": {
        "Street": "1900 King Street",
        "City": "Alexandria",
        "State": "VA",
        "Zip": "22301"
      }
    },
    {
      "Code": "C14",
      "Name": "Eisenhower Avenue",
      "LineCode1": "YL",
      "Lat": 38.800313,
      "Lon": -77.071173,
      "Address": {
        "Street": "2400 Eisenhower Ave",
        "City": "Alexandria",
        "State": "VA",
        "Zip": "22314"
      }
    },
    {
      "Code": "C15",
      "Name": "Huntington",
      "LineCode1": "YL",
      "Lat": 38.793841,
      "Lon": -77.075301,
      "Address": {
        "Street": "2701 Huntington Ave",
        "City": "Alexandria",
        "State": "VA",
        "Zip": "22303"
      }
    }
  ]
}